{
  "cities": [
    {
      "cityName": "Lisbon",
      "country": "Portugal",
      "emoji": "ðŸ‡µðŸ‡¹",
      "date": "2027-10-31T15:59:59.138Z",
      "notes": "My favorite city so far!",
      "position": {
        "lat": 38.727881642324164,
        "lng": -9.140900099907554
      },
      "id": "73930385"
    },
    {
      "cityName": "Madrid",
      "country": "Spain",
      "emoji": "ðŸ‡ªðŸ‡¸",
      "date": "2027-07-15T08:22:53.976Z",
      "notes": "",
      "position": {
        "lat": 40.46635901755316,
        "lng": -3.7133789062500004
      },
      "id": "17806751"
    },
    {
      "cityName": "Berlin",
      "country": "Germany",
      "emoji": "ðŸ‡©ðŸ‡ª",
      "date": "2027-02-12T09:24:11.863Z",
      "notes": "Amazing ðŸ˜ƒ",
      "position": {
        "lat": 52.53586782505711,
        "lng": 13.376933665713324
      },
      "id": "98443197"
    },
    {
      "id": "6e90",
      "cityName": "Kabul",
      "country": "Afghanistan",
      "emoji": "ðŸ‡¦ðŸ‡«",
      "date": "2024-12-30T13:11:50.857Z",
      "notes": "",
      "position": {
        "lat": 34.51560953848204,
        "lng": 69.19738769531251
      }
    },
    {
      "id": "14b4",
      "cityName": "Jaghuri",
      "country": "Afghanistan",
      "emoji": "ðŸ‡¦ðŸ‡«",
      "date": "2024-12-30T13:12:02.121Z",
      "notes": "",
      "position": {
        "lat": 33.144450560077985,
        "lng": 67.48352050781251
      }
    },
    {
      "id": "eb90",
      "cityName": "Dhaka",
      "country": "Bangladesh",
      "emoji": "ðŸ‡§ðŸ‡©",
      "date": "2024-12-30T17:20:40.872Z",
      "notes": "",
      "position": {
        "lat": 23.725011735951796,
        "lng": 90.41748046875001
      }
    },
    {
      "id": "e8d3",
      "cityName": "Goalpara",
      "country": "India",
      "emoji": "ðŸ‡®ðŸ‡³",
      "date": "2024-12-30T17:22:36.526Z",
      "notes": "",
      "position": {
        "lat": 26.155437968713574,
        "lng": 90.63720703125
      }
    },
    {
      "id": "c547",
      "cityName": "Chang Gewog",
      "country": "Bhutan",
      "emoji": "ðŸ‡§ðŸ‡¹",
      "date": "2024-12-30T17:23:06.005Z",
      "notes": "",
      "position": {
        "lat": 27.459539332717906,
        "lng": 89.63195800781251
      }
    }
  ]
}